[{"business_status": "OPERATIONAL", "geometry": {"location": {"lat": 14.7252404, "lng": -17.4691963}, "viewport": {"northeast": {"lat": 14.7266113302915, "lng": -17.4678193697085}, "southwest": {"lat": 14.7239133697085, "lng": -17.4705173302915}}}, "icon": "https://maps.gstatic.com/mapfiles/place_api/icons/v1/png_71/lodging-71.png", "icon_background_color": "#909CE1", "icon_mask_base_uri": "https://maps.gstatic.com/mapfiles/place_api/icons/v2/hotel_pinlet", "name": "H\u00f4tel \u00d4 Panoramic by CORA", "opening_hours": {"open_now": true}, "photos": [{"height": 1872, "html_attributions": ["<a href=\"https://maps.google.com/maps/contrib/102091619696564149473\">Lamine Ciss\u00e9</a>"], "photo_reference": "AciIO2c8ITGiYJ6Bf_aUmeY-9wEZb-SNuW5vqG-n2QZGF_HllcJNbxRI-wVcrOkbbn1qaG-bzRZfsNpwvPsvPQQxyENdYuv36caMkAdqW4CwVT9o2ODW4mBzHHY3CEUcsW1vT4s7zn8LWFHeNu4njlIK_WUtVvGY0z7I_3o2J-JMSfh-N4xG3lch9A27MKGYhPQ-zHrSn0tjJJoWIv7T2xRB5zsOoel1G3c-QKhSkfs9y-UOF8g21ZhAqDaoTw2ulpuhbIwHwgPaxE7QKW7naQzA0DJVhYukBB9YqkzTrFcCsh_Wfu2tz5nC2iX0PV_jhpa8cLuJp_6aH5e5E2tYaNm165NPEIDS9hXJTVjB5MOO75-rd_OdiA0rqTPOZw_AL7PA7FhKPkrdQ9QIpUlMgyi-5RHsh2PEK-H2kSXHvOlHioqHoKwkTgHQPVRsgNSe2qqKbfyp1ednVwF0Kb9GncQET7DfzLauIAWOBiFdmlfskD68JCwT9cIRjuDI825fP1H4eXLX8PU0veAJr6OvFoPK1gIC54Ht2vwerTFpt1_Gie65bhs-KaopX1JuD25-I3jwDV1XwSRkMLzuBp1HTeP1Po1MLu-ueTxnsW_zCeXm1e_Am4R4HZdEAGyi2FAUCU-E319_cj-R", "width": 4160}], "place_id": "ChIJw3MnC61ywQ4Rwz-WKuGtjbQ", "plus_code": {"compound_code": "PGGJ+38 Dakar, Senegal", "global_code": "7C64PGGJ+38"}, "rating": 3.8, "reference": "ChIJw3MnC61ywQ4Rwz-WKuGtjbQ", "scope": "GOOGLE", "types": ["restaurant", "food", "lodging", "point_of_interest", "establishment"], "user_ratings_total": 211, "vicinity": "N\u00b0 64, Dakar"}, {"business_status": "OPERATIONAL", "geometry": {"location": {"lat": 14.716677, "lng": -17.4676861}, "viewport": {"northeast": {"lat": 14.7179757802915, "lng": -17.4663105697085}, "southwest": {"lat": 14.7152778197085, "lng": -17.4690085302915}}}, "icon": "https://maps.gstatic.com/mapfiles/place_api/icons/v1/png_71/restaurant-71.png", "icon_background_color": "#FF9E67", "icon_mask_base_uri": "https://maps.gstatic.com/mapfiles/place_api/icons/v2/restaurant_pinlet", "name": "By Istanbul Kebab", "photos": [{"height": 3024, "html_attributions": ["<a href=\"https://maps.google.com/maps/contrib/103857345310314486685\">Cheikh Diaw</a>"], "photo_reference": "AciIO2dXqF3XxGd0zMv7cZlNYR_KLrEzyw6m7uJpNUGGAP7f3rADzsk1tmsmum7IE9Y-nJ8gh3QgvRwbfLH9hRDALP9-QKi2hRnBvEkoeZhr7WdikqPdu6Ijf8UWKb-JMVwEDmW6UHTrRMyXhru4S6DpB-2inm7k5UkP6V61FaUlOon5GcfHNsA-ouy4Dth0zfLzkV0z11GT_wDTCGHPl0cxsYiy4emFSRcimI6rJqrWdoXb8ILMpdSsSwbb03S-_VyTbfBwiiHdeWP1WVw7aj1kcvE8vLF5dVsIOdFDHETirpZPDQTOaXipvurfj8p4XbNhwtMIfeIj0VNsK-7CmmujQvwwRdnui67raLljzabkwfThCqTyth5JVnTLLHjfXyWFtUU2TxkLOdWpw_FI0W9Jv4ASiMeV6pr84viuR_jc02cPdwX1HC4_ZzgSYE5r0WJhe_MS_T-t33DKpXeU87jwtv0IFxd1Fe1e9__vwh6ffVDX5U1m9sBPl3-NxDdmYcVK9bcoSj9SI0b_Nr0QTgwDCUtFqn0X5FQRNWN1dGgxMMAGAiEJNnSAYchfIXudgo5-K7kuyMPMgNgasq3vgKHpKAZdiE_GAhiPKJ44PGGg2uY7iEi6H4F7dH1GAXaS6gyS8QecEseO", "width": 4032}], "place_id": "ChIJzdHC15sSwQ4RxalnzyT4mvI", "rating": 3.8, "reference": "ChIJzdHC15sSwQ4RxalnzyT4mvI", "scope": "GOOGLE", "types": ["restaurant", "food", "point_of_interest", "establishment"], "user_ratings_total": 21, "vicinity": "Unnamed Road"}, {"business_status": "OPERATIONAL", "geometry": {"location": {"lat": 14.7275255, "lng": -17.4704873}, "viewport": {"northeast": {"lat": 14.7288713802915, "lng": -17.4691361197085}, "southwest": {"lat": 14.7261734197085, "lng": -17.4718340802915}}}, "icon": "https://maps.gstatic.com/mapfiles/place_api/icons/v1/png_71/restaurant-71.png", "icon_background_color": "#FF9E67", "icon_mask_base_uri": "https://maps.gstatic.com/mapfiles/place_api/icons/v2/restaurant_pinlet", "name": "La Brioche dor\u00e9e", "opening_hours": {"open_now": true}, "photos": [{"height": 2736, "html_attributions": ["<a href=\"https://maps.google.com/maps/contrib/117722230823295422568\">Yves Amevoin</a>"], "photo_reference": "AciIO2fdCOADUlqZqgOKG_LKJVczwsf5WPQF7m6Wr7TkSRte3rUlmu3eJtgaB1pDCwA3btr5nUhkC6HJMQ9LoA1NH52-4RZeWNIvei-gJeXYV408ztFpmkEYgYrg-u8Fx28TxU9LYC4S64hTV6zJgXNyqLESg7Zrsb2VGzlc9jHxskCJlO0FO4-GvvaktHyDja_MfxGs1ZoYqEbjYM-Qamzo5exIFhR_OyBVYJ8rMKC2Kx2YRQAacEGInoNYxApdqDB_VlLgqY4PlEjgKr7RgY6wdeSrRdOQrKM2aTaTM2VvtduozwTrRelv2Pd-acG8s9-lu-1KYSqV1LG2rv3fxapVXlYNBl0VBAIK_t8OvN31Y5QE2K1nDUrX1iJHiaPo0AyaWtGopNJy8mREwAIyYTOx1aCv9M-IQyJZ7_QzivtTFGlSfZu_rdMNJvvO30H6INYNjePYG1rcgTsIROiLiytCS0_Mz9O4JvZXO2jnM2vF-GNT9fib8QqwL--Y7-F8e-12fQFsNgnQMV3V0JDoyotzy1-LmvQrkHgyrZ6nBk9YmkhQMfr2cRRXaJ3eOpRyvAyT5TiXQk1gRT7xK-uWQE3F6yxKnF6xUI1IIjtiwfv4uqPALsr1GjVgWp2GT99DukHPo4WFVg", "width": 4864}], "place_id": "ChIJV0iKllMNwQ4RMhmdnLTyMgM", "plus_code": {"compound_code": "PGHH+2R Dakar, Senegal", "global_code": "7C64PGHH+2R"}, "price_level": 2, "rating": 3.3, "reference": "ChIJV0iKllMNwQ4RMhmdnLTyMgM", "scope": "GOOGLE", "types": ["restaurant", "food", "point_of_interest", "establishment"], "user_ratings_total": 615, "vicinity": "en face auchan, Dakar"}, {"business_status": "OPERATIONAL", "geometry": {"location": {"lat": 14.72443, "lng": -17.4571602}, "viewport": {"northeast": {"lat": 14.7257710302915, "lng": -17.4557530697085}, "southwest": {"lat": 14.7230730697085, "lng": -17.4584510302915}}}, "icon": "https://maps.gstatic.com/mapfiles/place_api/icons/v1/png_71/restaurant-71.png", "icon_background_color": "#FF9E67", "icon_mask_base_uri": "https://maps.gstatic.com/mapfiles/place_api/icons/v2/restaurant_pinlet", "name": "Le Bistro", "opening_hours": {"open_now": true}, "photos": [{"height": 4160, "html_attributions": ["<a href=\"https://maps.google.com/maps/contrib/107605826628234571211\">Pape Matar Seye</a>"], "photo_reference": "AciIO2eQ8u8QIGcW23ySnGoq1JdpU_299WhLFhLBXlIaI1cvFm9AL9BpnvTZHtx8JHYsL7UJGwmORUyYnfNL774Qv_DfbOUhI15nyJYfXJ3EZOTPYx4AnLrrXkcKAfIPdc-NqlVz3OrYZT8d4UJLkh4GNtsz-KvxdGYr_qTZBlW8JaGOPJ8JIyP1cwQs5ALTgrC9vrTNS-aPMQGXeKn4dfTkZ7Hb_opQ6QZMEoyTq6xM4sRIas085ckrQ6hjzNM92KwcIwFwkNn0AcpzbU8Js0TnJf2f8R0oAahQ2WkYee_6w7vU1a1PmWBoj42ClcUrV6M7-BeLNyLpQSkBzU2nuU1n9vb0OHsEoLohE3IScas-8ykeAK7Gsn5oWHYxQrd4KTfIF5Cgi6z2ogW5ShNDk9eetLabCCXOAoEgp2jJZ0su-pzvvXP_7efDGO_6bpQBL-9SBHzAqbr3R8tv1KiNNTkmdwWo6m-QQR4Is30dlT4WsJawjKEBpHoOkf58ezprHYto7nlEKJQBg0eJEPTsciVGMdIIzWyRvN3CxbJPpg2c1oq7T6tt_HRZ0sNWtuuZe8TcoONHIfsce5WR8WaWU2uuFyauOhmrS8JyXQx6EHV74hkJQY6i0MBErNr1yKUviwGiKtqaig", "width": 3120}], "place_id": "ChIJvw0D67VywQ4RjTbOv4rt1eo", "plus_code": {"compound_code": "PGFV+Q4 Dakar, Senegal", "global_code": "7C64PGFV+Q4"}, "rating": 3.2, "reference": "ChIJvw0D67VywQ4RjTbOv4rt1eo", "scope": "GOOGLE", "types": ["restaurant", "food", "point_of_interest", "establishment"], "user_ratings_total": 33, "vicinity": "5515 Rue DD 17, Dakar"}, {"business_status": "OPERATIONAL", "geometry": {"location": {"lat": 14.705892, "lng": -17.4744298}, "viewport": {"northeast": {"lat": 14.7072217302915, "lng": -17.4731293697085}, "southwest": {"lat": 14.7045237697085, "lng": -17.4758273302915}}}, "icon": "https://maps.gstatic.com/mapfiles/place_api/icons/v1/png_71/restaurant-71.png", "icon_background_color": "#FF9E67", "icon_mask_base_uri": "https://maps.gstatic.com/mapfiles/place_api/icons/v2/restaurant_pinlet", "name": "Restaurant Epic\u00e9a", "opening_hours": {"open_now": true}, "photos": [{"height": 2560, "html_attributions": ["<a href=\"https://maps.google.com/maps/contrib/118041493531817284555\">Demba SOW</a>"], "photo_reference": "AciIO2fK059jp5orT-clHeEXSFgdcsmSbRtvDXTqO_1hVkodvhaC0llSAyB-XuIP93yxqjGqcUxTax08pdWjPrHEclR4YvUa9bp0bjhkpxsQ1rCg-RkAOpbpsllecOzRSWP5lk8VPskD9TufSH8gVa3i6uEJUdFqmrTGJn-Opv8LhmWL_ZMArDwyA97ABkNklelTSyoQUw6wpFYCHRQMvLrjsEQ1qtnA-GvIk_Z0gqZA7n8MAj6J4kIU-m9z09fV-TyHCJDLZn-r43FLuctbSY-YWS0SVNdDOJChhZcHdQLsCcNQz5PJmiAJgKgWqXfZYLWM2h5m-9ZVwFzVVTjbyDDXW83H3VOiT0POlpOij6ZXNlju6ktM4YWJObtlpADD5uPdZKUQ5Veavs7E7XO6U3-zpmII_sx2qjuaN6_oGlfQbhms15jK68AgFvEyFMiElqiQnhvPfsGCKZLHDAnfbRLjL-2WtM2B7DiTbWMD9AA1q9n4OGgT8SZAlrrNb90p1rrOrSSjcbRduavEZUg7zWcrYABhBP1SGAaJzn8F9JvHJA2V16Fhh0udBMexUKpfiixb5W1kFvw5hqT9EyFoiFU7f_VXEHToWy0MIESK0EctdEkkGP5sWpdE1M9GmTEj0dpl9tYsNg", "width": 1920}], "place_id": "ChIJ-8QU7qFywQ4RvH3uedoqs9g", "plus_code": {"compound_code": "PG4G+96 Dakar, Senegal", "global_code": "7C64PG4G+96"}, "rating": 3.8, "reference": "ChIJ-8QU7qFywQ4RvH3uedoqs9g", "scope": "GOOGLE", "types": ["restaurant", "food", "point_of_interest", "establishment"], "user_ratings_total": 94, "vicinity": "37 B, Mermoz Pyrotechnique Dakar SN"}, {"business_status": "OPERATIONAL", "geometry": {"location": {"lat": 14.7060052, "lng": -17.4601211}, "viewport": {"northeast": {"lat": 14.7073702802915, "lng": -17.4587978197085}, "southwest": {"lat": 14.7046723197085, "lng": -17.4614957802915}}}, "icon": "https://maps.gstatic.com/mapfiles/place_api/icons/v1/png_71/bar-71.png", "icon_background_color": "#FF9E67", "icon_mask_base_uri": "https://maps.gstatic.com/mapfiles/place_api/icons/v2/bar_pinlet", "name": "Restaurant le Bazoff", "opening_hours": {"open_now": true}, "photos": [{"height": 3024, "html_attributions": ["<a href=\"https://maps.google.com/maps/contrib/110597425610272643741\">Pamella Mbouna</a>"], "photo_reference": "AciIO2dULUO5S4pJzUqDkil3JqxB-7XpztsCUG5Tz54rCFRVQLRapQFrAs8lD_sd1_Az6aIdOe8qUXI48KvvvSH7U8Hv3_76JPqUTobddRDRKEhF9I5eNP7yHGUkZiuUb4jMs2DOCLHKB540u2fv_4RHAoPcIDiRdzV4GJon-drzQDQFOwqZiP3BbmSTESBnpn5NvQoUfni6Rb7ADzAb9bP3kd_MSX6Xno8L0ZOI-JxXJkYXtryD-f3l0DLyuWrbWdcCAorJ-8aX3uvuiYCa0uFa0SYLx1OPs1htW9KmeVnPzsuWcsv4M_7sOjV4FN-vn7I62C5hL2IunbNN-Vn89BTelwDHUtQY_8YfosqZf5yZpAgX_Nu_HCsyz-6gpSKilMLF4w068Eei3F30I1vqjXSX8XBYNgx9vGpu1Rh2-Jgya-bEMouLMp5kOGS19fZUZH1DIB6dzGzU_xT4mGPrh2mWBqc1Z3S8ycZ9_GiX-DEAr4U_Jyz-hTRdD4RVqK4YdFxrBUgvi9pjQrxCCxrW9YU5Fy_u34am80ZdR9fdUQU9jLXl-ysXhgDO0eOXqj1twLWX6DLR6Z3qWZ_Q9MWafNrQJS7bICr-HFCouGpxm_8FQ8LCzl0Y65xRLpyMOIUo_s06G-VJ3hgo", "width": 4032}], "place_id": "ChIJ8Wp3IL5ywQ4RGE3ZL40s7JU", "price_level": 2, "rating": 4.1, "reference": "ChIJ8Wp3IL5ywQ4RGE3ZL40s7JU", "scope": "GOOGLE", "types": ["bar", "restaurant", "food", "point_of_interest", "establishment"], "user_ratings_total": 2304, "vicinity": "PG3R+X2Q, Rue AAB 09, Dakar"}, {"business_status": "OPERATIONAL", "geometry": {"location": {"lat": 14.7290573, "lng": -17.463128}, "viewport": {"northeast": {"lat": 14.7303955302915, "lng": -17.4618261697085}, "southwest": {"lat": 14.72769756970849, "lng": -17.4645241302915}}}, "icon": "https://maps.gstatic.com/mapfiles/place_api/icons/v1/png_71/restaurant-71.png", "icon_background_color": "#FF9E67", "icon_mask_base_uri": "https://maps.gstatic.com/mapfiles/place_api/icons/v2/restaurant_pinlet", "name": "Panam'as Libert\u00e9 6", "opening_hours": {"open_now": true}, "photos": [{"height": 3024, "html_attributions": ["<a href=\"https://maps.google.com/maps/contrib/112156929150515953618\">Panam&#39;as Libert\u00e9 6</a>"], "photo_reference": "AciIO2eMjrrlpA3rWkqnxdmY5j-PFKeD-BUdJpI3taztBZzZn4pZ7A-fABUvJqV6dKWaOwIFGaAqiP6JK6vavwv8Gpc37KrI3ynbHSlUwdqU8CvN8MK1yg_m39TEu4ewAc3As-Z4PXKIeNsp8IrkH85Kjbvbq40D31OVUU9vCwpaN0EEbmx4Ra8a3svlV8K9qsELkWEXZz1yap_2LKibA6DZdrNker_hQk9U1T1fAz22tjDxX8rp6aDi4mI9JQoTLvumVIq68RN4a1cnFwA_O0nz-42MhBdnyFhIpDApEbCQOd4yB8ZDkQBSphtw6xgbPO0j83TD6gCBA9Y", "width": 4032}], "place_id": "ChIJH9Kb_EwNwQ4RALgNOeKNIF8", "plus_code": {"compound_code": "PGHP+JP Dakar, Senegal", "global_code": "7C64PGHP+JP"}, "price_level": 2, "rating": 3.7, "reference": "ChIJH9Kb_EwNwQ4RALgNOeKNIF8", "scope": "GOOGLE", "types": ["restaurant", "food", "point_of_interest", "establishment"], "user_ratings_total": 401, "vicinity": "Route du Front de Terre, Dakar"}, {"business_status": "CLOSED_TEMPORARILY", "geometry": {"location": {"lat": 14.7047842, "lng": -17.4733999}, "viewport": {"northeast": {"lat": 14.7062171802915, "lng": -17.4720205197085}, "southwest": {"lat": 14.7035192197085, "lng": -17.4747184802915}}}, "icon": "https://maps.gstatic.com/mapfiles/place_api/icons/v1/png_71/cafe-71.png", "icon_background_color": "#FF9E67", "icon_mask_base_uri": "https://maps.gstatic.com/mapfiles/place_api/icons/v2/cafe_pinlet", "name": "Simone Cafe", "permanently_closed": true, "photos": [{"height": 2448, "html_attributions": ["<a href=\"https://maps.google.com/maps/contrib/102569025747066765966\">Simone Cafe</a>"], "photo_reference": "AciIO2eIesV1OYgWM2B-npjuoEojpWmziJJm7C9n6re9U8LMvr7HQ_8IT8OkmwbeuZidYMv3vVxC1YQ-WLIIGzZ4ZQBZBi1v_qEPG7dqv7Bt8Bb5qrfF_915cMHnmwPgjYjqeAyQDvjH-_8PwRxj2YXdk1pczSEYbDh2zzmRlE4NWp1rbkR1nsw1NgV15uOqXe6GGHZl0K8776gsvnUpJY0SutMpyX94artqNfTXm2-Mtsp4YlwitV5iSsjhrSJlmcEy5p1O4Bm8vj7VG5evgpgsLoeRIBrTrzx1uBYS9htIMbUqZ_GJUNmoE1Naqw8OhAjS9zW3ElAmxSY", "width": 3264}], "place_id": "ChIJP32OqphywQ4R2Pzld04hDgo", "plus_code": {"compound_code": "PG3G+WJ Dakar, Senegal", "global_code": "7C64PG3G+WJ"}, "price_level": 2, "rating": 4.3, "reference": "ChIJP32OqphywQ4R2Pzld04hDgo", "scope": "GOOGLE", "types": ["cafe", "restaurant", "food", "store", "point_of_interest", "establishment"], "user_ratings_total": 290, "vicinity": "#7603 Villa Nabou, Rue 3, Dakar"}, {"business_status": "OPERATIONAL", "geometry": {"location": {"lat": 14.7036192, "lng": -17.4741005}, "viewport": {"northeast": {"lat": 14.7048321302915, "lng": -17.4728484697085}, "southwest": {"lat": 14.7021341697085, "lng": -17.4755464302915}}}, "icon": "https://maps.gstatic.com/mapfiles/place_api/icons/v1/png_71/restaurant-71.png", "icon_background_color": "#FF9E67", "icon_mask_base_uri": "https://maps.gstatic.com/mapfiles/place_api/icons/v2/restaurant_pinlet", "name": "YuCore Mermoz", "opening_hours": {"open_now": true}, "place_id": "ChIJl8rVSZ9ywQ4RP2F_HneTmqk", "rating": 2.5, "reference": "ChIJl8rVSZ9ywQ4RP2F_HneTmqk", "scope": "GOOGLE", "types": ["restaurant", "food", "point_of_interest", "establishment"], "user_ratings_total": 2, "vicinity": "PG3G+C9R, Dakar"}, {"business_status": "OPERATIONAL", "geometry": {"location": {"lat": 14.7224774, "lng": -17.4516707}, "viewport": {"northeast": {"lat": 14.7237990302915, "lng": -17.45032586970849}, "southwest": {"lat": 14.7211010697085, "lng": -17.4530238302915}}}, "icon": "https://maps.gstatic.com/mapfiles/place_api/icons/v1/png_71/school-71.png", "icon_background_color": "#7B9EB0", "icon_mask_base_uri": "https://maps.gstatic.com/mapfiles/place_api/icons/v2/school_pinlet", "name": "Institut Superieur \"Les Marmitons\"", "opening_hours": {"open_now": true}, "photos": [{"height": 3024, "html_attributions": ["<a href=\"https://maps.google.com/maps/contrib/101853075816715164326\">INSTITUT SUPERIEUR &quot;LES MARMITONS&quot;</a>"], "photo_reference": "AciIO2csmOahrcIHhT65No9Bpu8nYKYxO2I_dPSr12n8GgWV638ECvmn7ikhR7pWy6M_bBYVrTGqvac3Obvm8D3WeVqoo-_eJ_P8m4h80XuxXo8M_61-EqJhW0yivYQjdzKbT__ofKpc6UzHFD2VyMtz0Bj7A8BWPHjBhsW_4_hz5MfDnITZu3HTSCVLEJPT1cm7C-K1r0WpAA81Kk1Nm6N0Snx_zz4GT2iEsMWgZG1jJEwZx0XM-zhtxeZx6tBsASzHJdqc_gYWqmPT3lCB606e_Td2jpb8CsBjHav-W1mDcahM7dcw13kHzRoAmuMt_4rgul1fgOn9", "width": 4032}], "place_id": "ChIJj1nYKrZywQ4RWkH4ljk5ico", "plus_code": {"compound_code": "PGCX+X8 Dakar, Senegal", "global_code": "7C64PGCX+X8"}, "rating": 4, "reference": "ChIJj1nYKrZywQ4RWkH4ljk5ico", "scope": "GOOGLE", "types": ["bakery", "school", "restaurant", "food", "store", "point_of_interest", "establishment"], "user_ratings_total": 63, "vicinity": "Rue 13 \u00e0 C\u00f4t\u00e9 de la Clinique Croix-Bleue Castor, Dakar Dakar"}, {"business_status": "OPERATIONAL", "geometry": {"location": {"lat": 14.725367, "lng": -17.472115}, "viewport": {"northeast": {"lat": 14.7267358802915, "lng": -17.4706861197085}, "southwest": {"lat": 14.7240379197085, "lng": -17.4733840802915}}}, "icon": "https://maps.gstatic.com/mapfiles/place_api/icons/v1/png_71/restaurant-71.png", "icon_background_color": "#FF9E67", "icon_mask_base_uri": "https://maps.gstatic.com/mapfiles/place_api/icons/v2/restaurant_pinlet", "name": "Complexe Good rade", "opening_hours": {"open_now": true}, "photos": [{"height": 340, "html_attributions": ["<a href=\"https://maps.google.com/maps/contrib/114707615899036182114\">Dr Ngagne kane</a>"], "photo_reference": "AciIO2dvaTsz_DZUkw15knU1RqBBso8DmDkQUB_bEM7yoPuBH3tqgzlOS-vBrx0jc2nDCxpfW_x09ZQkmykw6U8oAMnQOjbBd_DOA4m2tvvy2LiJ0zAMR3Vee3X657F3u6rCwizAZzNwMkQ3Yc50LiT6XhFFs-jr3S072SspacxXQCtGIiI0TQp6vHoRcyRaAK6s3R_KYcnN1RcGwY6Pi_11TVg7OF12EBi8Lknb37NFyexFsloYfr8dhOXa5biLamuw5NPnmK8vxuvxYr96WKtxbwf3nqZsvY0f8aSZr344PGHNnczWa0VFAioC8WeTyw8Sr9czIdo_AUyrBjN1grZe4rzTHo2WiSZ_KEkE7zRQPIfvefHHuPjNu1pZBuSBmLrWow2yyByOyXhk2OCXKdnrjv4Rvt4MfmToUqnI4XIsTwTOZsnNY9EWGSK9GYc5yCirbzL1DTcNr6KD8adn6vAMLt20offKQ9IFcpbC5BV7FowkWqe-n07AkqKJNx0L4iX9vlRPn0MD3OY2MqzS88yga_x8ozhQN5D2WVWDqHoulrjdfg4Y20TebbmAk75VNgMkOOf572ApUi32C4wvKVai6wloJvvOfO5HQwKhtUroCdVYC5LFOJtAlLI6UhyPa_xpURNj_w", "width": 670}], "place_id": "ChIJj25FE1MNwQ4RXL3c0srIXUQ", "plus_code": {"compound_code": "PGGH+45 Dakar, Senegal", "global_code": "7C64PGGH+45"}, "price_level": 2, "rating": 3.8, "reference": "ChIJj25FE1MNwQ4RXL3c0srIXUQ", "scope": "GOOGLE", "types": ["restaurant", "bar", "food", "point_of_interest", "establishment"], "user_ratings_total": 661, "vicinity": "10561 Voie de degagement Nord, Dakar"}, {"business_status": "OPERATIONAL", "geometry": {"location": {"lat": 14.716677, "lng": -17.4676861}, "viewport": {"northeast": {"lat": 14.7179757802915, "lng": -17.4663105697085}, "southwest": {"lat": 14.7152778197085, "lng": -17.4690085302915}}}, "icon": "https://maps.gstatic.com/mapfiles/place_api/icons/v1/png_71/restaurant-71.png", "icon_background_color": "#FF9E67", "icon_mask_base_uri": "https://maps.gstatic.com/mapfiles/place_api/icons/v2/restaurant_pinlet", "name": "Velvet Resto-Lounge", "place_id": "ChIJMYhJ80ZzwQ4R9B9Ii138_0I", "reference": "ChIJMYhJ80ZzwQ4R9B9Ii138_0I", "scope": "GOOGLE", "types": ["restaurant", "food", "point_of_interest", "establishment"], "vicinity": "https://maps.google.com/maps?q=14, 696853637695312%2C-17.46489715576172&z=17&hl=fr, Dakar"}, {"business_status": "OPERATIONAL", "geometry": {"location": {"lat": 14.716677, "lng": -17.4676861}, "viewport": {"northeast": {"lat": 14.7179757802915, "lng": -17.4663105697085}, "southwest": {"lat": 14.7152778197085, "lng": -17.4690085302915}}}, "icon": "https://maps.gstatic.com/mapfiles/place_api/icons/v1/png_71/restaurant-71.png", "icon_background_color": "#FF9E67", "icon_mask_base_uri": "https://maps.gstatic.com/mapfiles/place_api/icons/v2/restaurant_pinlet", "name": "Same ngueinne", "place_id": "ChIJNdRPZwBzwQ4RKoP5EkWbFZk", "reference": "ChIJNdRPZwBzwQ4RKoP5EkWbFZk", "scope": "GOOGLE", "types": ["restaurant", "food", "point_of_interest", "establishment"], "vicinity": "PHJHdepartement denganda+9RM, Dakar"}, {"business_status": "OPERATIONAL", "geometry": {"location": {"lat": 14.716677, "lng": -17.4676861}, "viewport": {"northeast": {"lat": 14.7179757802915, "lng": -17.4663105697085}, "southwest": {"lat": 14.7152778197085, "lng": -17.4690085302915}}}, "icon": "https://maps.gstatic.com/mapfiles/place_api/icons/v1/png_71/restaurant-71.png", "icon_background_color": "#FF9E67", "icon_mask_base_uri": "https://maps.gstatic.com/mapfiles/place_api/icons/v2/restaurant_pinlet", "name": "Ndeye - Racines & Rituels", "photos": [{"height": 1871, "html_attributions": ["<a href=\"https://maps.google.com/maps/contrib/115437841850772052202\">Ndeye - Racines &amp; Rituels</a>"], "photo_reference": "AciIO2dotELawiMHrOZqHp28lLCTQdymMAWY8M5zWEsAklUUVMYHp7v8q7AhveANhL1Frgwc1hHdMR2BuR_1vo-njkNnj-r-Dlvm0M7HcysugZ2pjgOZuLKYhM2wW3CeCvpK0STjNsPHrLuqy79QUxfhdP7YcWcYiwWg61dWEOBIYEbLY6FM3BzjGGqG77NdLqkAR8e4nMb48RcETMQf65dVypF9Z5e1L9QSBdfa8SjM8500bvLYhCpBlU-78-FS0Jb1z5aJp7Dm3uGJiYpc8Zwj8Tnmy3JeHDQ-BnE_HM9jvoS3YoPI5B8N6_dyk-8zpl4BHbdOB8qJx1E", "width": 2804}], "place_id": "ChIJebmET8FzwQ4Rmg1c0451CX8", "plus_code": {"compound_code": "PG8J+MW Dakar, Senegal", "global_code": "7C64PG8J+MW"}, "reference": "ChIJebmET8FzwQ4Rmg1c0451CX8", "scope": "GOOGLE", "types": ["restaurant", "food", "point_of_interest", "establishment"], "vicinity": "Dakar"}, {"business_status": "OPERATIONAL", "geometry": {"location": {"lat": 14.716677, "lng": -17.4676861}, "viewport": {"northeast": {"lat": 14.7179757802915, "lng": -17.4663105697085}, "southwest": {"lat": 14.7152778197085, "lng": -17.4690085302915}}}, "icon": "https://maps.gstatic.com/mapfiles/place_api/icons/v1/png_71/restaurant-71.png", "icon_background_color": "#FF9E67", "icon_mask_base_uri": "https://maps.gstatic.com/mapfiles/place_api/icons/v2/restaurant_pinlet", "name": "Alhassane", "place_id": "ChIJH9kFNABzwQ4RwKCCKR4V78o", "rating": 5, "reference": "ChIJH9kFNABzwQ4RwKCCKR4V78o", "scope": "GOOGLE", "types": ["restaurant", "food", "point_of_interest", "establishment"], "user_ratings_total": 1, "vicinity": "PG8J+MWG, Dakar"}, {"business_status": "OPERATIONAL", "geometry": {"location": {"lat": 14.716677, "lng": -17.4676861}, "viewport": {"northeast": {"lat": 14.7179757802915, "lng": -17.4663105697085}, "southwest": {"lat": 14.7152778197085, "lng": -17.4690085302915}}}, "icon": "https://maps.gstatic.com/mapfiles/place_api/icons/v1/png_71/restaurant-71.png", "icon_background_color": "#FF9E67", "icon_mask_base_uri": "https://maps.gstatic.com/mapfiles/place_api/icons/v2/restaurant_pinlet", "name": "Fish market", "place_id": "ChIJ1a-pVwBzwQ4R9ioEazbe34M", "reference": "ChIJ1a-pVwBzwQ4R9ioEazbe34M", "scope": "GOOGLE", "types": ["restaurant", "food", "point_of_interest", "establishment"], "vicinity": "PG8J+MWG, Dakar"}, {"business_status": "OPERATIONAL", "geometry": {"location": {"lat": 14.716677, "lng": -17.4676861}, "viewport": {"northeast": {"lat": 14.7179757802915, "lng": -17.4663105697085}, "southwest": {"lat": 14.7152778197085, "lng": -17.4690085302915}}}, "icon": "https://maps.gstatic.com/mapfiles/place_api/icons/v1/png_71/restaurant-71.png", "icon_background_color": "#FF9E67", "icon_mask_base_uri": "https://maps.gstatic.com/mapfiles/place_api/icons/v2/restaurant_pinlet", "name": "Abdou Khadre Mar", "place_id": "ChIJfSlZEQBzwQ4Rt_LE3KFTDyk", "reference": "ChIJfSlZEQBzwQ4Rt_LE3KFTDyk", "scope": "GOOGLE", "types": ["restaurant", "food", "point_of_interest", "establishment"], "vicinity": "PG8J+MWG, Dakar"}, {"business_status": "OPERATIONAL", "geometry": {"location": {"lat": 14.716677, "lng": -17.4676861}, "viewport": {"northeast": {"lat": 14.7179757802915, "lng": -17.4663105697085}, "southwest": {"lat": 14.7152778197085, "lng": -17.4690085302915}}}, "icon": "https://maps.gstatic.com/mapfiles/place_api/icons/v1/png_71/restaurant-71.png", "icon_background_color": "#FF9E67", "icon_mask_base_uri": "https://maps.gstatic.com/mapfiles/place_api/icons/v2/restaurant_pinlet", "name": "the good taste by eva", "opening_hours": {"open_now": true}, "place_id": "ChIJl9l5W35zwQ4RBjGLDTbzwtE", "plus_code": {"compound_code": "PG8J+MW Dakar, Senegal", "global_code": "7C64PG8J+MW"}, "reference": "ChIJl9l5W35zwQ4RBjGLDTbzwtE", "scope": "GOOGLE", "types": ["restaurant", "food", "point_of_interest", "establishment"], "vicinity": "Dakar"}, {"business_status": "OPERATIONAL", "geometry": {"location": {"lat": 14.716677, "lng": -17.4676861}, "viewport": {"northeast": {"lat": 14.7179757802915, "lng": -17.4663105697085}, "southwest": {"lat": 14.7152778197085, "lng": -17.4690085302915}}}, "icon": "https://maps.gstatic.com/mapfiles/place_api/icons/v1/png_71/restaurant-71.png", "icon_background_color": "#FF9E67", "icon_mask_base_uri": "https://maps.gstatic.com/mapfiles/place_api/icons/v2/restaurant_pinlet", "name": "Oumoulkhoura", "opening_hours": {"open_now": true}, "place_id": "ChIJXZp4HABzwQ4RF617ejWbg_c", "plus_code": {"compound_code": "PG8J+MW Dakar, Senegal", "global_code": "7C64PG8J+MW"}, "reference": "ChIJXZp4HABzwQ4RF617ejWbg_c", "scope": "GOOGLE", "types": ["restaurant", "food", "point_of_interest", "establishment"], "vicinity": "Rue MZ-132, Dakar"}, {"business_status": "OPERATIONAL", "geometry": {"location": {"lat": 14.716677, "lng": -17.4676861}, "viewport": {"northeast": {"lat": 14.7179757802915, "lng": -17.4663105697085}, "southwest": {"lat": 14.7152778197085, "lng": -17.4690085302915}}}, "icon": "https://maps.gstatic.com/mapfiles/place_api/icons/v1/png_71/restaurant-71.png", "icon_background_color": "#FF9E67", "icon_mask_base_uri": "https://maps.gstatic.com/mapfiles/place_api/icons/v2/restaurant_pinlet", "name": "Round Pont yoff", "photos": [{"height": 800, "html_attributions": ["<a href=\"https://maps.google.com/maps/contrib/106478238180830474047\">Alhaji Marrah</a>"], "photo_reference": "AciIO2cdx7a6TSI__2Yi9qOYVLRSoQGM6TJ-Lqh6cyVinWY6w-zEULiK3kThL4QCRXoFXi-fCqc8Qgivm3n9gmX_XQpWuLKi_XTkcZA3q4xVJ_IiE-mKbG_Zyr_WdFRU1b9vtZG4JupVjUHLLWqH6LqrkSHlj_FRiT_w5fPNeqi7LNEWs7qhkP7_RKVHIC9gHXA8uIRs4kXk64XeD_chjymSydti_7ZmlPFRpGop5w4XdMthf27XdXCHJAp5Rf83DDE__DRvEAwP5UafXfLH7cW-WpIHxFM8V7MM0Qy3tC3tyZklXkhkGzUykCAHIIi9vuwMqKOPGbYjrPYImE4xWGtbzznQjbXaTCowCr26bSuzcb3C5_UZ3QASzhZQdUpXjhSGcMyM0zoIxfrwgnZn9bcv3oovoVYV3BTLLgP5UDcyeOylysAumo0hFHkKSj5P9akw82gV1-oIa_p2yIvl1J9Kj1rStjrASEvvA2axNHXVL35-cmItLMNo6ILvjlKLTyj3sQ8Ez3c2lvqfpI-ENO49Xs9Lffpnkq3hJB4pz1WFuasuUhI9Wd-kDuzpb-ek6N5APoFRF6aEQ5fB9X9llJtng2HjCN7igYzRwPlaYg4-67AAR2QosWFu3PrqfkcvDRPJhW0ynQ", "width": 1200}], "place_id": "ChIJo8_kLQBzwQ4RJvDC0qj78uc", "rating": 5, "reference": "ChIJo8_kLQBzwQ4RJvDC0qj78uc", "scope": "GOOGLE", "types": ["restaurant", "food", "point_of_interest", "establishment"], "user_ratings_total": 2, "vicinity": "PG8J+MWG, Dakar"}, {"business_status": "OPERATIONAL", "geometry": {"location": {"lat": 14.716677, "lng": -17.4676861}, "viewport": {"northeast": {"lat": 14.7179757802915, "lng": -17.4663105697085}, "southwest": {"lat": 14.7152778197085, "lng": -17.4690085302915}}}, "icon": "https://maps.gstatic.com/mapfiles/place_api/icons/v1/png_71/restaurant-71.png", "icon_background_color": "#FF9E67", "icon_mask_base_uri": "https://maps.gstatic.com/mapfiles/place_api/icons/v2/restaurant_pinlet", "name": "Thiaroye", "place_id": "ChIJpd6zAQBzwQ4R5bNoPeWKkiM", "reference": "ChIJpd6zAQBzwQ4R5bNoPeWKkiM", "scope": "GOOGLE", "types": ["restaurant", "food", "point_of_interest", "establishment"], "vicinity": "PG8J+MWG, Dakar"}, {"business_status": "OPERATIONAL", "geometry": {"location": {"lat": 14.716677, "lng": -17.4676861}, "viewport": {"northeast": {"lat": 14.7179757802915, "lng": -17.4663105697085}, "southwest": {"lat": 14.7152778197085, "lng": -17.4690085302915}}}, "icon": "https://maps.gstatic.com/mapfiles/place_api/icons/v1/png_71/restaurant-71.png", "icon_background_color": "#FF9E67", "icon_mask_base_uri": "https://maps.gstatic.com/mapfiles/place_api/icons/v2/restaurant_pinlet", "name": "\u09b2\u09be\u09b2\u09ae\u09a8\u09bf\u09b0\u09b9\u09be\u099f", "place_id": "ChIJZ7AOWQBzwQ4R7rYDv8-Pi60", "reference": "ChIJZ7AOWQBzwQ4R7rYDv8-Pi60", "scope": "GOOGLE", "types": ["restaurant", "food", "point_of_interest", "establishment"], "vicinity": "PG8J+MWG, Dakar"}, {"business_status": "OPERATIONAL", "geometry": {"location": {"lat": 14.716677, "lng": -17.4676861}, "viewport": {"northeast": {"lat": 14.7179757802915, "lng": -17.4663105697085}, "southwest": {"lat": 14.7152778197085, "lng": -17.4690085302915}}}, "icon": "https://maps.gstatic.com/mapfiles/place_api/icons/v1/png_71/restaurant-71.png", "icon_background_color": "#FF9E67", "icon_mask_base_uri": "https://maps.gstatic.com/mapfiles/place_api/icons/v2/restaurant_pinlet", "name": "Keur Douda", "opening_hours": {"open_now": true}, "place_id": "ChIJV6eQzb1zwQ4RIXu18IX_vSU", "plus_code": {"compound_code": "PG8J+MW Dakar, Senegal", "global_code": "7C64PG8J+MW"}, "reference": "ChIJV6eQzb1zwQ4RIXu18IX_vSU", "scope": "GOOGLE", "types": ["restaurant", "food", "point_of_interest", "establishment"], "vicinity": "Apix, Dakar"}, {"business_status": "OPERATIONAL", "geometry": {"location": {"lat": 14.716677, "lng": -17.4676861}, "viewport": {"northeast": {"lat": 14.7179757802915, "lng": -17.4663105697085}, "southwest": {"lat": 14.7152778197085, "lng": -17.4690085302915}}}, "icon": "https://maps.gstatic.com/mapfiles/place_api/icons/v1/png_71/restaurant-71.png", "icon_background_color": "#FF9E67", "icon_mask_base_uri": "https://maps.gstatic.com/mapfiles/place_api/icons/v2/restaurant_pinlet", "name": "Mamadou boutique qui estMamadou boutique y est", "opening_hours": {"open_now": true}, "photos": [{"height": 576, "html_attributions": ["<a href=\"https://maps.google.com/maps/contrib/101189461022590007943\">Mamadou boutique qui estMamadou boutique y est</a>"], "photo_reference": "AciIO2coRsJCsT1CzrS3CrgfwcxQSMEMrPXztvrDOi-wH8qAZ0IoMaCO4wfJblKyjBOzMd5Laa0iZcDMQmqQjxm1zPUQZtXifSDoazVDOtcw-v3FKzIx6UBRpGm5FbCSVsdA6W3_UNk8xKa5zFsY1eOuRVuxxxLKZdpDk5e2GmdQE5THwb6uqyG9F1w1XsHtNWaidCsuvEIWZfczduWgT8wI6Yz2m6Sc5onNs8MUfyDyeTeII18vGsiaUhrVClxmgZqLGfqWWkxqhw8dLOu70DKWbeL1HwvE5fVUy7rgdrQ05bwfRFMblCMZozpLgWU6rPeDRzlMeFPOPzc", "width": 768}], "place_id": "ChIJIRVUSy5zwQ4Rm_bLtpRAu8A", "plus_code": {"compound_code": "PG8J+MW Dakar, Senegal", "global_code": "7C64PG8J+MW"}, "rating": 5, "reference": "ChIJIRVUSy5zwQ4Rm_bLtpRAu8A", "scope": "GOOGLE", "types": ["restaurant", "food", "point_of_interest", "establishment"], "user_ratings_total": 1, "vicinity": "Dakar"}, {"business_status": "OPERATIONAL", "geometry": {"location": {"lat": 14.716677, "lng": -17.4676861}, "viewport": {"northeast": {"lat": 14.7179757802915, "lng": -17.4663105697085}, "southwest": {"lat": 14.7152778197085, "lng": -17.4690085302915}}}, "icon": "https://maps.gstatic.com/mapfiles/place_api/icons/v1/png_71/restaurant-71.png", "icon_background_color": "#FF9E67", "icon_mask_base_uri": "https://maps.gstatic.com/mapfiles/place_api/icons/v2/restaurant_pinlet", "name": "NAZY trating", "opening_hours": {"open_now": true}, "place_id": "ChIJCa1rWQFzwQ4R0f12jVuZK3Y", "plus_code": {"compound_code": "PG8J+MW Dakar, Senegal", "global_code": "7C64PG8J+MW"}, "reference": "ChIJCa1rWQFzwQ4R0f12jVuZK3Y", "scope": "GOOGLE", "types": ["restaurant", "food", "point_of_interest", "establishment"], "vicinity": "Dakar"}, {"business_status": "OPERATIONAL", "geometry": {"location": {"lat": 14.716677, "lng": -17.4676861}, "viewport": {"northeast": {"lat": 14.7179757802915, "lng": -17.4663105697085}, "southwest": {"lat": 14.7152778197085, "lng": -17.4690085302915}}}, "icon": "https://maps.gstatic.com/mapfiles/place_api/icons/v1/png_71/restaurant-71.png", "icon_background_color": "#FF9E67", "icon_mask_base_uri": "https://maps.gstatic.com/mapfiles/place_api/icons/v2/restaurant_pinlet", "name": "SESA Catering", "place_id": "ChIJFVE9rFpzwQ4RXHd9P86vDLg", "plus_code": {"compound_code": "PG8J+MW Dakar, Senegal", "global_code": "7C64PG8J+MW"}, "reference": "ChIJFVE9rFpzwQ4RXHd9P86vDLg", "scope": "GOOGLE", "types": ["restaurant", "food", "point_of_interest", "establishment"], "vicinity": "Domaine Industriel Diamniadio, Dakar"}, {"business_status": "OPERATIONAL", "geometry": {"location": {"lat": 14.716677, "lng": -17.4676861}, "viewport": {"northeast": {"lat": 14.7179757802915, "lng": -17.4663105697085}, "southwest": {"lat": 14.7152778197085, "lng": -17.4690085302915}}}, "icon": "https://maps.gstatic.com/mapfiles/place_api/icons/v1/png_71/restaurant-71.png", "icon_background_color": "#FF9E67", "icon_mask_base_uri": "https://maps.gstatic.com/mapfiles/place_api/icons/v2/restaurant_pinlet", "name": "Le Banquet Traiteur", "opening_hours": {"open_now": true}, "place_id": "ChIJd-1bjCtzwQ4RHCH9woV0L-Q", "reference": "ChIJd-1bjCtzwQ4RHCH9woV0L-Q", "scope": "GOOGLE", "types": ["restaurant", "food", "point_of_interest", "establishment"], "vicinity": "PG8J+MWG, Dakar"}, {"business_status": "OPERATIONAL", "geometry": {"location": {"lat": 14.716677, "lng": -17.4676861}, "viewport": {"northeast": {"lat": 14.7179757802915, "lng": -17.4663105697085}, "southwest": {"lat": 14.7152778197085, "lng": -17.4690085302915}}}, "icon": "https://maps.gstatic.com/mapfiles/place_api/icons/v1/png_71/restaurant-71.png", "icon_background_color": "#FF9E67", "icon_mask_base_uri": "https://maps.gstatic.com/mapfiles/place_api/icons/v2/restaurant_pinlet", "name": "Hasne Bernard dakar", "place_id": "ChIJYeWqDO9zwQ4R93y_aC6hwrU", "reference": "ChIJYeWqDO9zwQ4R93y_aC6hwrU", "scope": "GOOGLE", "types": ["restaurant", "food", "point_of_interest", "establishment"], "vicinity": "PG8J+MWG, Dakar"}, {"business_status": "OPERATIONAL", "geometry": {"location": {"lat": 14.716677, "lng": -17.4676861}, "viewport": {"northeast": {"lat": 14.7179757802915, "lng": -17.4663105697085}, "southwest": {"lat": 14.7152778197085, "lng": -17.4690085302915}}}, "icon": "https://maps.gstatic.com/mapfiles/place_api/icons/v1/png_71/restaurant-71.png", "icon_background_color": "#FF9E67", "icon_mask_base_uri": "https://maps.gstatic.com/mapfiles/place_api/icons/v2/restaurant_pinlet", "name": "Le brunch du dimanche 221", "photos": [{"height": 2000, "html_attributions": ["<a href=\"https://maps.google.com/maps/contrib/102231201348209756637\">Le brunch du dimanche 221</a>"], "photo_reference": "AciIO2dD-qT-5O_UkOGAJq3jfE5aXJcLjmB60j7VLBCz-3viIAjdU9XthfelRCVA2MNbt_SDOSBGQ3T0i9n6-gwpRYTPEqa6O6kpCVKVBGQrwOLS384God64KhgYlXxwo0v3bAiAouJXRMHt7dkVjd2X--lGisZf5gKb52RkMFY_qMbVI5jIciIFyb3CbYdkuCEuwsHXI04sKE8NwDXtM2V7V49Bw6OM9XfA8LFFQ3Ftsx4RSAIhl3Ec03SBUT2oneOBTXLPCqWlEwrFWxCX9rL8r4SzA-FIZ2V_-fTh6X6rCg62kshfNRf-WZx0XEM7EP7hgNNUNO0e25A", "width": 1545}], "place_id": "ChIJc1bez7hzwQ4RLTr2JzbKZWc", "plus_code": {"compound_code": "PG8J+MW Dakar, Senegal", "global_code": "7C64PG8J+MW"}, "reference": "ChIJc1bez7hzwQ4RLTr2JzbKZWc", "scope": "GOOGLE", "types": ["restaurant", "food", "point_of_interest", "establishment"], "vicinity": "11000, Dakar"}, {"business_status": "OPERATIONAL", "geometry": {"location": {"lat": 14.716677, "lng": -17.4676861}, "viewport": {"northeast": {"lat": 14.7179757802915, "lng": -17.4663105697085}, "southwest": {"lat": 14.7152778197085, "lng": -17.4690085302915}}}, "icon": "https://maps.gstatic.com/mapfiles/place_api/icons/v1/png_71/restaurant-71.png", "icon_background_color": "#FF9E67", "icon_mask_base_uri": "https://maps.gstatic.com/mapfiles/place_api/icons/v2/restaurant_pinlet", "name": "Go\u00fbt d\u2019Afrique", "opening_hours": {"open_now": true}, "place_id": "ChIJ20jGvAtzwQ4RKvSC4pxUeBw", "reference": "ChIJ20jGvAtzwQ4RKvSC4pxUeBw", "scope": "GOOGLE", "types": ["restaurant", "food", "point_of_interest", "establishment"], "vicinity": "PG8J+MWG, Dakar"}, {"business_status": "OPERATIONAL", "geometry": {"location": {"lat": 14.716677, "lng": -17.4676861}, "viewport": {"northeast": {"lat": 14.7179757802915, "lng": -17.4663105697085}, "southwest": {"lat": 14.7152778197085, "lng": -17.4690085302915}}}, "icon": "https://maps.gstatic.com/mapfiles/place_api/icons/v1/png_71/restaurant-71.png", "icon_background_color": "#FF9E67", "icon_mask_base_uri": "https://maps.gstatic.com/mapfiles/place_api/icons/v2/restaurant_pinlet", "name": "\u0986\u09ac\u09c1 \u09ac\u09be\u0995\u09cd\u0995\u09be\u09b0", "place_id": "ChIJldiFcGxzwQ4R4Il4mercwbc", "reference": "ChIJldiFcGxzwQ4R4Il4mercwbc", "scope": "GOOGLE", "types": ["restaurant", "food", "point_of_interest", "establishment"], "vicinity": "PG8J+MWG, Dakar"}, {"business_status": "OPERATIONAL", "geometry": {"location": {"lat": 14.716677, "lng": -17.4676861}, "viewport": {"northeast": {"lat": 14.7179757802915, "lng": -17.4663105697085}, "southwest": {"lat": 14.7152778197085, "lng": -17.4690085302915}}}, "icon": "https://maps.gstatic.com/mapfiles/place_api/icons/v1/png_71/restaurant-71.png", "icon_background_color": "#FF9E67", "icon_mask_base_uri": "https://maps.gstatic.com/mapfiles/place_api/icons/v2/restaurant_pinlet", "name": "Ouest Restpo", "photos": [{"height": 557, "html_attributions": ["<a href=\"https://maps.google.com/maps/contrib/116986430099123447265\">KEM KEM</a>"], "photo_reference": "AciIO2d2cVngFB4HoQI4fcDlL5XgOC71P-6OvpqlizFQHgp9VCAuwSL_FaIp1rhaF-OY3AS0w8szQF_KwIbxUgZptBZJ2BTnKBGMkoHsD4mz3jh51BcL44jmhObaoyaaNvW6h4Mq8VTBtA2ufAjfbnvQq4bb2r0cypX8O0-b3bcSmkULT0yFgvmu87yCcmang8as-NIHZoNXPxM4TyoWvnqs42KV0QiTaDk_66SpALtJyKrsIPKB5MwHNHHUPy0sleOyuvLaS3RaGEk5jf1AR99aMIiq5w8jsXHGWtCsBxoOs9Kx09VvOcY5clLrUXTS9poYZZ_tRiGUCilISO1FreG1VRhdK2ScprGxIExlO9WH7xVyxD9ysIic31ktqSlkYrqCWe2_n6mQXSeoYBc4a2dVTUFBRFoSbDyLQLGik0TsPN-V6VrCYQdMym3iJWgJZwbBkOgONY-SHPVnGprxizuunPst_XvS_bL943QJ484cV4kdqMGCRnKCNqyvHW0ySd0wJQ8Vmd3QFHR3HYAyCy2EGMxXFE_WOzKYTHBIzxCnlUAMEDbotBAjMVncwkbafBVUgN9-pV5J9TyspSl0QdOTQUTqEYB9BaA1Kfg6vQmB1vWuIIGxgJq2wSeebwLEk3m8", "width": 1024}], "place_id": "ChIJO6DePLJzwQ4RcA80qH-O3HA", "plus_code": {"compound_code": "PG8J+MW Dakar, Senegal", "global_code": "7C64PG8J+MW"}, "reference": "ChIJO6DePLJzwQ4RcA80qH-O3HA", "scope": "GOOGLE", "types": ["restaurant", "food", "point_of_interest", "establishment"], "vicinity": "2500, Dakar"}, {"business_status": "OPERATIONAL", "geometry": {"location": {"lat": 14.716677, "lng": -17.4676861}, "viewport": {"northeast": {"lat": 14.7179757802915, "lng": -17.4663105697085}, "southwest": {"lat": 14.7152778197085, "lng": -17.4690085302915}}}, "icon": "https://maps.gstatic.com/mapfiles/place_api/icons/v1/png_71/restaurant-71.png", "icon_background_color": "#FF9E67", "icon_mask_base_uri": "https://maps.gstatic.com/mapfiles/place_api/icons/v2/restaurant_pinlet", "name": "archibon restaurant", "opening_hours": {"open_now": true}, "place_id": "ChIJvRBjT4ZzwQ4RZjEMTVH2bqc", "plus_code": {"compound_code": "PG8J+MW Dakar, Senegal", "global_code": "7C64PG8J+MW"}, "reference": "ChIJvRBjT4ZzwQ4RZjEMTVH2bqc", "scope": "GOOGLE", "types": ["restaurant", "food", "point_of_interest", "establishment"], "vicinity": "Amiti\u00e9 2 villa n\u00b0 4212"}, {"business_status": "OPERATIONAL", "geometry": {"location": {"lat": 14.716677, "lng": -17.4676861}, "viewport": {"northeast": {"lat": 14.7179757802915, "lng": -17.4663105697085}, "southwest": {"lat": 14.7152778197085, "lng": -17.4690085302915}}}, "icon": "https://maps.gstatic.com/mapfiles/place_api/icons/v1/png_71/restaurant-71.png", "icon_background_color": "#FF9E67", "icon_mask_base_uri": "https://maps.gstatic.com/mapfiles/place_api/icons/v2/restaurant_pinlet", "name": "Joubi fast Food", "place_id": "ChIJB3t-5DpzwQ4RQQF0iNvufaI", "plus_code": {"compound_code": "PG8J+MW Dakar, Senegal", "global_code": "7C64PG8J+MW"}, "reference": "ChIJB3t-5DpzwQ4RQQF0iNvufaI", "scope": "GOOGLE", "types": ["restaurant", "food", "point_of_interest", "establishment"], "vicinity": "BP3802"}, {"business_status": "OPERATIONAL", "geometry": {"location": {"lat": 14.716677, "lng": -17.4676861}, "viewport": {"northeast": {"lat": 14.7179757802915, "lng": -17.4663105697085}, "southwest": {"lat": 14.7152778197085, "lng": -17.4690085302915}}}, "icon": "https://maps.gstatic.com/mapfiles/place_api/icons/v1/png_71/restaurant-71.png", "icon_background_color": "#FF9E67", "icon_mask_base_uri": "https://maps.gstatic.com/mapfiles/place_api/icons/v2/restaurant_pinlet", "name": "Restaurant la belle vie", "opening_hours": {"open_now": true}, "place_id": "ChIJSWDle9dzwQ4RK_BdsREG_3E", "plus_code": {"compound_code": "PG8J+MW Dakar, Senegal", "global_code": "7C64PG8J+MW"}, "rating": 5, "reference": "ChIJSWDle9dzwQ4RK_BdsREG_3E", "scope": "GOOGLE", "types": ["restaurant", "food", "point_of_interest", "establishment"], "user_ratings_total": 2, "vicinity": "Dakar"}, {"business_status": "OPERATIONAL", "geometry": {"location": {"lat": 14.716677, "lng": -17.4676861}, "viewport": {"northeast": {"lat": 14.7179757802915, "lng": -17.4663105697085}, "southwest": {"lat": 14.7152778197085, "lng": -17.4690085302915}}}, "icon": "https://maps.gstatic.com/mapfiles/place_api/icons/v1/png_71/restaurant-71.png", "icon_background_color": "#FF9E67", "icon_mask_base_uri": "https://maps.gstatic.com/mapfiles/place_api/icons/v2/restaurant_pinlet", "name": "\u0627\u0644\u063a\u0627\u0644\u064a", "place_id": "ChIJNZ2MuZ9zwQ4RXTwcjXf62XQ", "reference": "ChIJNZ2MuZ9zwQ4RXTwcjXf62XQ", "scope": "GOOGLE", "types": ["restaurant", "food", "point_of_interest", "establishment"], "vicinity": "PG8J+MWG, Dakar"}, {"business_status": "OPERATIONAL", "geometry": {"location": {"lat": 14.716677, "lng": -17.4676861}, "viewport": {"northeast": {"lat": 14.7179757802915, "lng": -17.4663105697085}, "southwest": {"lat": 14.7152778197085, "lng": -17.4690085302915}}}, "icon": "https://maps.gstatic.com/mapfiles/place_api/icons/v1/png_71/restaurant-71.png", "icon_background_color": "#FF9E67", "icon_mask_base_uri": "https://maps.gstatic.com/mapfiles/place_api/icons/v2/restaurant_pinlet", "name": "RESTAURANT DAKAR", "opening_hours": {"open_now": true}, "photos": [{"height": 2383, "html_attributions": ["<a href=\"https://maps.google.com/maps/contrib/113031055052944413509\">Pape Assane Seck</a>"], "photo_reference": "AciIO2fYE5nl4rrk1rgAd5J-iPEs7Gl7A11PRHUYSGhodArdUN_fVj-mjUoE5sPbdGs3wNg6Jt6JjXcd7DmQcCQwETq8Vg6Sv36nT1YoaAZEpmnRuA9RIJHYuLKBo-iBhaX5opPjMEFZSxVNZLNYvGRbwEtxb61rtXI9nRGOh1LS4Vf9RRsvfZzfSV0G8I2miLny9YUo8dGM3stAwgCxVVKq6_PyWdhTCy3VPXTRu6jRoi0gRz9DMWrLt8RevpJzaZG_1wDbquY9RJEQ8gq4uH97z4M8fep8cdStgvnX1JaOK3HjrZNqxlDkM9uNG_0q986SaRbtcZtluDkZYy5hKdfdDpakSwVw8b06Ucemsiq2g-FakQCeV5dDoO4IWjZavP8hqCq5xwK8nkyIvLth_WyinmfZ4-njOdQtjTiCC8242VMwtXRHMwvIEUgQXV3GG0-0Cj26iq1HZt7oUe6Kk3kgWJrrbMjOMnSPOAINzsVZUOPjzXBk3zh4VMXHvh3eC7atI9LeGGGAtQloHwzqsSuM7PFSmODn8ZYcGJM5L2bs2I9tt1Mm56oO7GSxI0lDzNv9rcTFmL7E727Is0YatCwyAUn8HEdiu9YII-U7as7fjDG8yjs6gLha3A5jjOUf22kqIX5c6g", "width": 3024}], "place_id": "ChIJBU_YOEFzwQ4Rc1DA8ZfSKWU", "plus_code": {"compound_code": "PG8J+MW Dakar, Senegal", "global_code": "7C64PG8J+MW"}, "rating": 5, "reference": "ChIJBU_YOEFzwQ4Rc1DA8ZfSKWU", "scope": "GOOGLE", "types": ["restaurant", "food", "point_of_interest", "establishment"], "user_ratings_total": 4, "vicinity": "https://goo.gl/maps/i6yYtnbXZcPRkE9H8, Dakar"}, {"business_status": "OPERATIONAL", "geometry": {"location": {"lat": 14.716677, "lng": -17.4676861}, "viewport": {"northeast": {"lat": 14.7179757802915, "lng": -17.4663105697085}, "southwest": {"lat": 14.7152778197085, "lng": -17.4690085302915}}}, "icon": "https://maps.gstatic.com/mapfiles/place_api/icons/v1/png_71/restaurant-71.png", "icon_background_color": "#FF9E67", "icon_mask_base_uri": "https://maps.gstatic.com/mapfiles/place_api/icons/v2/restaurant_pinlet", "name": "Natur addict", "place_id": "ChIJU6zQV-5zwQ4REZvMf1vYZHU", "reference": "ChIJU6zQV-5zwQ4REZvMf1vYZHU", "scope": "GOOGLE", "types": ["restaurant", "food", "point_of_interest", "establishment"], "vicinity": "PG8J+MWG, Dakar"}, {"business_status": "OPERATIONAL", "geometry": {"location": {"lat": 14.716677, "lng": -17.4676861}, "viewport": {"northeast": {"lat": 14.7179757802915, "lng": -17.4663105697085}, "southwest": {"lat": 14.7152778197085, "lng": -17.4690085302915}}}, "icon": "https://maps.gstatic.com/mapfiles/place_api/icons/v1/png_71/restaurant-71.png", "icon_background_color": "#FF9E67", "icon_mask_base_uri": "https://maps.gstatic.com/mapfiles/place_api/icons/v2/restaurant_pinlet", "name": "Restaurant Adja Saliou", "place_id": "ChIJfTZqyQFzwQ4ReMAU5tUd3rc", "plus_code": {"compound_code": "PG8J+MW Dakar, Senegal", "global_code": "7C64PG8J+MW"}, "rating": 5, "reference": "ChIJfTZqyQFzwQ4ReMAU5tUd3rc", "scope": "GOOGLE", "types": ["restaurant", "food", "point_of_interest", "establishment"], "user_ratings_total": 1, "vicinity": "1330 D Rue LIB-305, Dakar"}, {"business_status": "OPERATIONAL", "geometry": {"location": {"lat": 14.716677, "lng": -17.4676861}, "viewport": {"northeast": {"lat": 14.7179757802915, "lng": -17.4663105697085}, "southwest": {"lat": 14.7152778197085, "lng": -17.4690085302915}}}, "icon": "https://maps.gstatic.com/mapfiles/place_api/icons/v1/png_71/restaurant-71.png", "icon_background_color": "#FF9E67", "icon_mask_base_uri": "https://maps.gstatic.com/mapfiles/place_api/icons/v2/restaurant_pinlet", "name": "J and J Traiteurs", "place_id": "ChIJuVvCTsVzwQ4RS2p3h0aTDHI", "plus_code": {"compound_code": "PG8J+MW Dakar, Senegal", "global_code": "7C64PG8J+MW"}, "reference": "ChIJuVvCTsVzwQ4RS2p3h0aTDHI", "scope": "GOOGLE", "types": ["restaurant", "food", "point_of_interest", "establishment"], "vicinity": "Dakar"}, {"business_status": "OPERATIONAL", "geometry": {"location": {"lat": 14.716677, "lng": -17.4676861}, "viewport": {"northeast": {"lat": 14.7179757802915, "lng": -17.4663105697085}, "southwest": {"lat": 14.7152778197085, "lng": -17.4690085302915}}}, "icon": "https://maps.gstatic.com/mapfiles/place_api/icons/v1/png_71/restaurant-71.png", "icon_background_color": "#FF9E67", "icon_mask_base_uri": "https://maps.gstatic.com/mapfiles/place_api/icons/v2/restaurant_pinlet", "name": "Abid", "place_id": "ChIJn1Z0xl5zwQ4R_04NR2fTXVc", "reference": "ChIJn1Z0xl5zwQ4R_04NR2fTXVc", "scope": "GOOGLE", "types": ["restaurant", "food", "point_of_interest", "establishment"], "vicinity": "PG8J+MWG, Dakar"}, {"business_status": "OPERATIONAL", "geometry": {"location": {"lat": 14.716677, "lng": -17.4676861}, "viewport": {"northeast": {"lat": 14.7179757802915, "lng": -17.4663105697085}, "southwest": {"lat": 14.7152778197085, "lng": -17.4690085302915}}}, "icon": "https://maps.gstatic.com/mapfiles/place_api/icons/v1/png_71/restaurant-71.png", "icon_background_color": "#FF9E67", "icon_mask_base_uri": "https://maps.gstatic.com/mapfiles/place_api/icons/v2/restaurant_pinlet", "name": "EASY FOOD", "place_id": "ChIJ04hQXdZzwQ4RcSxKPtW-rcE", "reference": "ChIJ04hQXdZzwQ4RcSxKPtW-rcE", "scope": "GOOGLE", "types": ["restaurant", "food", "point_of_interest", "establishment"], "vicinity": "13977, Dakar"}, {"business_status": "OPERATIONAL", "geometry": {"location": {"lat": 14.716677, "lng": -17.4676861}, "viewport": {"northeast": {"lat": 14.7179757802915, "lng": -17.4663105697085}, "southwest": {"lat": 14.7152778197085, "lng": -17.4690085302915}}}, "icon": "https://maps.gstatic.com/mapfiles/place_api/icons/v1/png_71/restaurant-71.png", "icon_background_color": "#FF9E67", "icon_mask_base_uri": "https://maps.gstatic.com/mapfiles/place_api/icons/v2/restaurant_pinlet", "name": "Station 10", "place_id": "ChIJB3VcXU9zwQ4RyojovMFhuPQ", "reference": "ChIJB3VcXU9zwQ4RyojovMFhuPQ", "scope": "GOOGLE", "types": ["restaurant", "food", "point_of_interest", "establishment"], "vicinity": "PG8J+MWG, Dakar"}, {"business_status": "OPERATIONAL", "geometry": {"location": {"lat": 14.716677, "lng": -17.4676861}, "viewport": {"northeast": {"lat": 14.7179757802915, "lng": -17.4663105697085}, "southwest": {"lat": 14.7152778197085, "lng": -17.4690085302915}}}, "icon": "https://maps.gstatic.com/mapfiles/place_api/icons/v1/png_71/restaurant-71.png", "icon_background_color": "#FF9E67", "icon_mask_base_uri": "https://maps.gstatic.com/mapfiles/place_api/icons/v2/restaurant_pinlet", "name": "Metro Food", "opening_hours": {"open_now": true}, "place_id": "ChIJVdPiQ11zwQ4RQ1gpZZNxGIo", "plus_code": {"compound_code": "PG8J+MW Dakar, Senegal", "global_code": "7C64PG8J+MW"}, "reference": "ChIJVdPiQ11zwQ4RQ1gpZZNxGIo", "scope": "GOOGLE", "types": ["restaurant", "food", "point_of_interest", "establishment"], "vicinity": "14000, Dakar"}, {"business_status": "OPERATIONAL", "geometry": {"location": {"lat": 14.716677, "lng": -17.4676861}, "viewport": {"northeast": {"lat": 14.7179757802915, "lng": -17.4663105697085}, "southwest": {"lat": 14.7152778197085, "lng": -17.4690085302915}}}, "icon": "https://maps.gstatic.com/mapfiles/place_api/icons/v1/png_71/restaurant-71.png", "icon_background_color": "#FF9E67", "icon_mask_base_uri": "https://maps.gstatic.com/mapfiles/place_api/icons/v2/restaurant_pinlet", "name": "meilleur gout", "opening_hours": {"open_now": true}, "photos": [{"height": 900, "html_attributions": ["<a href=\"https://maps.google.com/maps/contrib/116216597555888168194\">meilleur gout</a>"], "photo_reference": "AciIO2cfjX3CwaLQrJ1L8lqIMenRRCcpE8qP3UGDaQfcFutbjctmYKjEPV2yOIXUh4UPE0wKp2xYcRKDCzeDzFbDVhBRCnfnwaGjpmR3IRUeTrGkpdTisH-6bU7lXDk-hghIl8GjNxrfqGhIBPOqzNAzHMskjPXzpi8uwgOowZm_l_ZZT-_mfUcrjA6NkcvwtTLMIgdD8kwQBwKz934x4sIgml-399p08_dOn-mII_LkOvu47qGZwfqnReizlOURItBVf-9bF6Qub6cWfN0Be6lXqdlyTg4sbAXKevhgC3nx6rz37AvcPqMHEIvU8ppVHNNMd9ajPDV9TWQ", "width": 1200}], "place_id": "ChIJpw_Hr-RzwQ4Rgfw8QOsZ8xM", "plus_code": {"compound_code": "PG8J+MW Dakar, Senegal", "global_code": "7C64PG8J+MW"}, "reference": "ChIJpw_Hr-RzwQ4Rgfw8QOsZ8xM", "scope": "GOOGLE", "types": ["restaurant", "food", "point_of_interest", "establishment"], "vicinity": "RUE LIB 3, Dakar"}, {"business_status": "OPERATIONAL", "geometry": {"location": {"lat": 14.716677, "lng": -17.4676861}, "viewport": {"northeast": {"lat": 14.7179757802915, "lng": -17.4663105697085}, "southwest": {"lat": 14.7152778197085, "lng": -17.4690085302915}}}, "icon": "https://maps.gstatic.com/mapfiles/place_api/icons/v1/png_71/bar-71.png", "icon_background_color": "#FF9E67", "icon_mask_base_uri": "https://maps.gstatic.com/mapfiles/place_api/icons/v2/bar_pinlet", "name": "LES DELICES DE CHERIFA", "place_id": "ChIJ4VklKNhzwQ4RaJVWokoV6P0", "plus_code": {"compound_code": "PG8J+MW Dakar, Senegal", "global_code": "7C64PG8J+MW"}, "reference": "ChIJ4VklKNhzwQ4RaJVWokoV6P0", "scope": "GOOGLE", "types": ["restaurant", "food", "bar", "point_of_interest", "establishment"], "vicinity": "HML5 DAKAR"}, {"business_status": "OPERATIONAL", "geometry": {"location": {"lat": 14.716677, "lng": -17.4676861}, "viewport": {"northeast": {"lat": 14.7179757802915, "lng": -17.4663105697085}, "southwest": {"lat": 14.7152778197085, "lng": -17.4690085302915}}}, "icon": "https://maps.gstatic.com/mapfiles/place_api/icons/v1/png_71/restaurant-71.png", "icon_background_color": "#FF9E67", "icon_mask_base_uri": "https://maps.gstatic.com/mapfiles/place_api/icons/v2/restaurant_pinlet", "name": "O\u2019Snack", "place_id": "ChIJW1TQI6lzwQ4ReVif0UiB4n0", "reference": "ChIJW1TQI6lzwQ4ReVif0UiB4n0", "scope": "GOOGLE", "types": ["restaurant", "food", "point_of_interest", "establishment"], "vicinity": "PG8J+MWG, Zac, Dakar"}, {"business_status": "OPERATIONAL", "geometry": {"location": {"lat": 14.716677, "lng": -17.4676861}, "viewport": {"northeast": {"lat": 14.7179757802915, "lng": -17.4663105697085}, "southwest": {"lat": 14.7152778197085, "lng": -17.4690085302915}}}, "icon": "https://maps.gstatic.com/mapfiles/place_api/icons/v1/png_71/restaurant-71.png", "icon_background_color": "#FF9E67", "icon_mask_base_uri": "https://maps.gstatic.com/mapfiles/place_api/icons/v2/restaurant_pinlet", "name": "Caf\u00e9taria ISM", "opening_hours": {"open_now": true}, "place_id": "ChIJbfxYqPtzwQ4RH_BFgpnNM7A", "reference": "ChIJbfxYqPtzwQ4RH_BFgpnNM7A", "scope": "GOOGLE", "types": ["restaurant", "food", "point_of_interest", "establishment"], "vicinity": "PG8J+MWG, Point E en face de St. Cristopher, Dakar"}, {"business_status": "OPERATIONAL", "geometry": {"location": {"lat": 14.716677, "lng": -17.4676861}, "viewport": {"northeast": {"lat": 14.7179757802915, "lng": -17.4663105697085}, "southwest": {"lat": 14.7152778197085, "lng": -17.4690085302915}}}, "icon": "https://maps.gstatic.com/mapfiles/place_api/icons/v1/png_71/restaurant-71.png", "icon_background_color": "#FF9E67", "icon_mask_base_uri": "https://maps.gstatic.com/mapfiles/place_api/icons/v2/restaurant_pinlet", "name": "Les d\u00e9lices de Michelle", "opening_hours": {"open_now": true}, "photos": [{"height": 4676, "html_attributions": ["<a href=\"https://maps.google.com/maps/contrib/100230021237390817324\">Les d\u00e9lices de Michelle</a>"], "photo_reference": "AciIO2eqNMS2XTkGHP0YYiSrSKRsdDWcK2lz9urKEwMdUzwDN3M3KtTLv-3ZXObg_aR97dEmvnu94F6mfj6BNJcWkcqDBqLhUZ4d0VGivge0jvPhPu5IEg7MgU62DOisxYQ-zDI__VvLc5A2izbS-wVgRLCr13pa8TxDaJTZ-Oxr4UjFoY15wRBzAzEkd8-7LisJAsr0Fp3P0TPzGbSlJG0Y9BK1Djvf7IrDLxFz6q10BTPSLSCyZaYUl3DoHT93J9b6Qrxb2BjLpab3g2dS-XwCOCJ9LEzzT7V-nNaN_n0vh0YZ4XqZUmEbu_d9CGGv66vu-JdAI0VeBX8", "width": 7008}], "place_id": "ChIJPzj8JQxzwQ4R8fSjnQ2USr4", "plus_code": {"compound_code": "PG8J+MW Dakar, Senegal", "global_code": "7C64PG8J+MW"}, "reference": "ChIJPzj8JQxzwQ4R8fSjnQ2USr4", "scope": "GOOGLE", "types": ["restaurant", "food", "point_of_interest", "establishment"], "vicinity": "Sacr\u00e9 coeur II"}, {"business_status": "CLOSED_TEMPORARILY", "geometry": {"location": {"lat": 14.716677, "lng": -17.4676861}, "viewport": {"northeast": {"lat": 14.7179757802915, "lng": -17.4663105697085}, "southwest": {"lat": 14.7152778197085, "lng": -17.4690085302915}}}, "icon": "https://maps.gstatic.com/mapfiles/place_api/icons/v1/png_71/restaurant-71.png", "icon_background_color": "#FF9E67", "icon_mask_base_uri": "https://maps.gstatic.com/mapfiles/place_api/icons/v2/restaurant_pinlet", "name": "RESTAURANT DASH", "permanently_closed": true, "photos": [{"height": 538, "html_attributions": ["<a href=\"https://maps.google.com/maps/contrib/113979134517013863161\">RESTAURANT DASH</a>"], "photo_reference": "AciIO2dCKQxyDWGjKXGAORBjcCNyxcWkjLI5sVWaC4VKIKQS7lXXA4JIxEAgULfTkaSxt0DumUF3RuR52kdcoG-pvJJlm2BpBF-Ssa57aCabxc4K1Qz-uLM4_b90cT3z4hmTzfxr1kT-j4YRa0D-Yv7pdpMLNV3Rm9XsGRvCeUA02elfN55nY7IhxYSWlzjwEG9sBthu26kP2GvMTYudcVScmaqfa4RSHkzUsQ94KOGTJcKeWfZG9iJemF2wo9logqp20CQgxmcaPhHALBJvrmQ4-TmKxsIA7H4nzygo4HaNHZ6USeiG8yZ7WcjQV3tSsMahDutfyYG7f0U", "width": 720}], "place_id": "ChIJDUNn8hZzwQ4RKU7R379rs48", "plus_code": {"compound_code": "PG8J+MW Dakar, Senegal", "global_code": "7C64PG8J+MW"}, "reference": "ChIJDUNn8hZzwQ4RKU7R379rs48", "scope": "GOOGLE", "types": ["restaurant", "food", "point_of_interest", "establishment"], "vicinity": "DAKAR,SENEGAL SENEGAL"}, {"business_status": "OPERATIONAL", "geometry": {"location": {"lat": 14.716677, "lng": -17.4676861}, "viewport": {"northeast": {"lat": 14.7179757802915, "lng": -17.4663105697085}, "southwest": {"lat": 14.7152778197085, "lng": -17.4690085302915}}}, "icon": "https://maps.gstatic.com/mapfiles/place_api/icons/v1/png_71/restaurant-71.png", "icon_background_color": "#FF9E67", "icon_mask_base_uri": "https://maps.gstatic.com/mapfiles/place_api/icons/v2/restaurant_pinlet", "name": "AMOF", "opening_hours": {"open_now": true}, "place_id": "ChIJiXPemBhzwQ4RHvWAFwqurVw", "plus_code": {"compound_code": "PG8J+MW Dakar, Senegal", "global_code": "7C64PG8J+MW"}, "reference": "ChIJiXPemBhzwQ4RHvWAFwqurVw", "scope": "GOOGLE", "types": ["restaurant", "food", "point_of_interest", "establishment"], "vicinity": "13500"}, {"business_status": "OPERATIONAL", "geometry": {"location": {"lat": 14.716677, "lng": -17.4676861}, "viewport": {"northeast": {"lat": 14.7179757802915, "lng": -17.4663105697085}, "southwest": {"lat": 14.7152778197085, "lng": -17.4690085302915}}}, "icon": "https://maps.gstatic.com/mapfiles/place_api/icons/v1/png_71/restaurant-71.png", "icon_background_color": "#FF9E67", "icon_mask_base_uri": "https://maps.gstatic.com/mapfiles/place_api/icons/v2/restaurant_pinlet", "name": "FG4", "place_id": "ChIJ7Rh2FblzwQ4RRcDXLfnJVPA", "reference": "ChIJ7Rh2FblzwQ4RRcDXLfnJVPA", "scope": "GOOGLE", "types": ["restaurant", "food", "point_of_interest", "establishment"], "vicinity": "PG8J+MWG, tyjj"}, {"business_status": "OPERATIONAL", "geometry": {"location": {"lat": 14.716677, "lng": -17.4676861}, "viewport": {"northeast": {"lat": 14.7179757802915, "lng": -17.4663105697085}, "southwest": {"lat": 14.7152778197085, "lng": -17.4690085302915}}}, "icon": "https://maps.gstatic.com/mapfiles/place_api/icons/v1/png_71/restaurant-71.png", "icon_background_color": "#FF9E67", "icon_mask_base_uri": "https://maps.gstatic.com/mapfiles/place_api/icons/v2/restaurant_pinlet", "name": "LE RESTO SP\u00c9CIAL", "place_id": "ChIJHxQPk3tzwQ4RG5AdnBcnyeU", "plus_code": {"compound_code": "PG8J+MW Dakar, Senegal", "global_code": "7C64PG8J+MW"}, "reference": "ChIJHxQPk3tzwQ4RG5AdnBcnyeU", "scope": "GOOGLE", "types": ["restaurant", "food", "point_of_interest", "establishment"], "vicinity": "Dakar, Diamniadio"}, {"business_status": "OPERATIONAL", "geometry": {"location": {"lat": 14.716677, "lng": -17.4676861}, "viewport": {"northeast": {"lat": 14.7179757802915, "lng": -17.4663105697085}, "southwest": {"lat": 14.7152778197085, "lng": -17.4690085302915}}}, "icon": "https://maps.gstatic.com/mapfiles/place_api/icons/v1/png_71/restaurant-71.png", "icon_background_color": "#FF9E67", "icon_mask_base_uri": "https://maps.gstatic.com/mapfiles/place_api/icons/v2/restaurant_pinlet", "name": "Ndap li traiteur", "place_id": "ChIJuc7uH-BzwQ4R4rnqx58w4d8", "plus_code": {"compound_code": "PG8J+MW Dakar, Senegal", "global_code": "7C64PG8J+MW"}, "reference": "ChIJuc7uH-BzwQ4R4rnqx58w4d8", "scope": "GOOGLE", "types": ["restaurant", "food", "point_of_interest", "establishment"], "vicinity": "11000, Dakar"}, {"business_status": "OPERATIONAL", "geometry": {"location": {"lat": 14.716677, "lng": -17.4676861}, "viewport": {"northeast": {"lat": 14.7179757802915, "lng": -17.4663105697085}, "southwest": {"lat": 14.7152778197085, "lng": -17.4690085302915}}}, "icon": "https://maps.gstatic.com/mapfiles/place_api/icons/v1/png_71/restaurant-71.png", "icon_background_color": "#FF9E67", "icon_mask_base_uri": "https://maps.gstatic.com/mapfiles/place_api/icons/v2/restaurant_pinlet", "name": "Best Choice", "opening_hours": {"open_now": true}, "place_id": "ChIJqRPJoilzwQ4RF3gQZH5BZrs", "plus_code": {"compound_code": "PG8J+MW Dakar, Senegal", "global_code": "7C64PG8J+MW"}, "reference": "ChIJqRPJoilzwQ4RF3gQZH5BZrs", "scope": "GOOGLE", "types": ["restaurant", "food", "point_of_interest", "establishment"], "vicinity": "13000"}, {"business_status": "OPERATIONAL", "geometry": {"location": {"lat": 14.716677, "lng": -17.4676861}, "viewport": {"northeast": {"lat": 14.7179757802915, "lng": -17.4663105697085}, "southwest": {"lat": 14.7152778197085, "lng": -17.4690085302915}}}, "icon": "https://maps.gstatic.com/mapfiles/place_api/icons/v1/png_71/restaurant-71.png", "icon_background_color": "#FF9E67", "icon_mask_base_uri": "https://maps.gstatic.com/mapfiles/place_api/icons/v2/restaurant_pinlet", "name": "Chez Mme Tawfeex", "place_id": "ChIJ_8G8cQNzwQ4Rgchcs5amTzQ", "plus_code": {"compound_code": "PG8J+MW Dakar, Senegal", "global_code": "7C64PG8J+MW"}, "reference": "ChIJ_8G8cQNzwQ4Rgchcs5amTzQ", "scope": "GOOGLE", "types": ["restaurant", "food", "point_of_interest", "establishment"], "vicinity": "Dakar"}, {"business_status": "OPERATIONAL", "geometry": {"location": {"lat": 14.716677, "lng": -17.4676861}, "viewport": {"northeast": {"lat": 14.7179757802915, "lng": -17.4663105697085}, "southwest": {"lat": 14.7152778197085, "lng": -17.4690085302915}}}, "icon": "https://maps.gstatic.com/mapfiles/place_api/icons/v1/png_71/restaurant-71.png", "icon_background_color": "#FF9E67", "icon_mask_base_uri": "https://maps.gstatic.com/mapfiles/place_api/icons/v2/restaurant_pinlet", "name": "Mon plat pr\u00e9f\u00e9r\u00e9", "opening_hours": {"open_now": true}, "place_id": "ChIJiUaiaIhzwQ4RehfHzrQw9ls", "plus_code": {"compound_code": "PG8J+MW Dakar, Senegal", "global_code": "7C64PG8J+MW"}, "reference": "ChIJiUaiaIhzwQ4RehfHzrQw9ls", "scope": "GOOGLE", "types": ["restaurant", "food", "point_of_interest", "establishment"], "vicinity": "Dakar"}, {"business_status": "OPERATIONAL", "geometry": {"location": {"lat": 14.716677, "lng": -17.4676861}, "viewport": {"northeast": {"lat": 14.7179757802915, "lng": -17.4663105697085}, "southwest": {"lat": 14.7152778197085, "lng": -17.4690085302915}}}, "icon": "https://maps.gstatic.com/mapfiles/place_api/icons/v1/png_71/restaurant-71.png", "icon_background_color": "#FF9E67", "icon_mask_base_uri": "https://maps.gstatic.com/mapfiles/place_api/icons/v2/restaurant_pinlet", "name": "RESTAURANT CHEZ AMY FALL", "photos": [{"height": 1080, "html_attributions": ["<a href=\"https://maps.google.com/maps/contrib/102601774997617061999\">Rahul Kumar</a>"], "photo_reference": "AciIO2eUxubufaAIXGBti2WwTPRKYH0hkWjgGWjbsWiXN8DE2EiVx_rsYBOONj9w06BSCGh-awkDwkR5RcOxxZ4hkFwt4YxlfmDty9ErUOXBm6e9bi5vWrLsfypgCZM1-_iSkRZK_VX6DO11Zwcc1dPYKRTnFsfvAE0ZaP0q4rH-PxGtvzF6qKmA3Y0EKxR0_r9EBcpLrLiHuAkK_JS3fwwjADqQfhdk5k7JjRO-rJZG9uJ2nWg-mjYgGJXbewh1hKReMwjr_SvksUYSGIswlOZ3-Pw5w40hJj4JZww9tZCmZ5yLgfVKr8-zAbBuKk1FN-OEKHewjmpMBfp5IYy5NOcOv0--tgBU7mvqXzLm1ANIMI6bJ0TO1D3PtAG3CA_1MIcKQWp3bW0kOEvcq8hODh3HTExjrR_NTgbXJtjIN682Z92iyp9-vh7j6ZZeN-6r9rqSnlHHu72D7TnvCQmvQPxUubqWdzIBkGX4PzWsbZ1RKtIQlgkIgNCkjH9Orhm7H3NNx8HnGpiVPLfv1G8lY0ORG3j-gHbA7wTLw_OQbQTcBMFVCOfKaMtzXYo7lk9yoTPMkyn0_KQXlQLBPVJoA6NugPLaJZpZK6uSwh287LkJnejyFa7FKQmDKqMhPPZVcf8K-4fyQA", "width": 1920}], "place_id": "ChIJ40CE3lFzwQ4R7iidPRwLzO0", "plus_code": {"compound_code": "PG8J+MW Dakar, Senegal", "global_code": "7C64PG8J+MW"}, "reference": "ChIJ40CE3lFzwQ4R7iidPRwLzO0", "scope": "GOOGLE", "types": ["restaurant", "food", "point_of_interest", "establishment"], "vicinity": "104 Rue DD-137, Dakar"}, {"business_status": "OPERATIONAL", "geometry": {"location": {"lat": 14.716677, "lng": -17.4676861}, "viewport": {"northeast": {"lat": 14.7179757802915, "lng": -17.4663105697085}, "southwest": {"lat": 14.7152778197085, "lng": -17.4690085302915}}}, "icon": "https://maps.gstatic.com/mapfiles/place_api/icons/v1/png_71/restaurant-71.png", "icon_background_color": "#FF9E67", "icon_mask_base_uri": "https://maps.gstatic.com/mapfiles/place_api/icons/v2/restaurant_pinlet", "name": "Le Comptoir", "place_id": "ChIJw7UchQFzwQ4RD5te_hnjjpw", "plus_code": {"compound_code": "PG8J+MW Dakar, Senegal", "global_code": "7C64PG8J+MW"}, "reference": "ChIJw7UchQFzwQ4RD5te_hnjjpw", "scope": "GOOGLE", "types": ["restaurant", "food", "point_of_interest", "establishment"], "vicinity": "5 Rue LIB-59, Dakar"}, {"business_status": "OPERATIONAL", "geometry": {"location": {"lat": 14.716677, "lng": -17.4676861}, "viewport": {"northeast": {"lat": 14.7179757802915, "lng": -17.4663105697085}, "southwest": {"lat": 14.7152778197085, "lng": -17.4690085302915}}}, "icon": "https://maps.gstatic.com/mapfiles/place_api/icons/v1/png_71/restaurant-71.png", "icon_background_color": "#FF9E67", "icon_mask_base_uri": "https://maps.gstatic.com/mapfiles/place_api/icons/v2/restaurant_pinlet", "name": "ksene", "opening_hours": {"open_now": true}, "photos": [{"height": 960, "html_attributions": ["<a href=\"https://maps.google.com/maps/contrib/114928392588326753777\">ksene</a>"], "photo_reference": "AciIO2e4lY1iHxMSBEheo-yrmgbSwx4Pr5jq0qaHIUyE8g9STtcQJCpbLx6xYjEp-Ow_sycX5qHlrlNMhEQqNrExTmpoDxKVEY7_SXIc8tOegvP_g52yJDXl0uD0ojiG496e8qc3qQBVppiY440sChxXQKZfq2Z9YRqVSzTmd4AVpVuLukQkGX1Hv9hCZigvNRyO6HKoVBIzf_k2g1miuKRhDRoulCuE9W30jTng6-W1joS9CBQ3g-Al27eR05l-vHhGECAAcxjkuIvDYTVAP97dezJoyTmg0I3OjqnQfLiX5elcRqvxcp0cBi8-E-U7vSq7baxeJZC62Fk", "width": 540}], "place_id": "ChIJxV1TrUpzwQ4RclPaXDiu4TU", "plus_code": {"compound_code": "PG8J+MW Dakar, Senegal", "global_code": "7C64PG8J+MW"}, "reference": "ChIJxV1TrUpzwQ4RclPaXDiu4TU", "scope": "GOOGLE", "types": ["restaurant", "food", "point_of_interest", "establishment"], "vicinity": "Dieuppeul 1 villa 2279D, Dakar"}]